{"cityid": "101110101", "city": "\u897f\u5b89", "cityEn": "xian", "country": "\u4e2d\u56fd", "countryEn": "China", "update_time": "2020-12-10 19:53:01", "data": [{"day": "10\u65e5\uff08\u661f\u671f\u56db\uff09", "date": "2020-12-10", "week": "\u661f\u671f\u56db", "wea": "\u591a\u4e91", "wea_img": "yun", "wea_day": "\u591a\u4e91", "wea_day_img": "yun", "wea_night": "\u591a\u4e91", "wea_night_img": "yun", "tem": "5", "tem1": "10", "tem2": "-1", "humidity": "70%", "visibility": "\u6682\u7f3a", "pressure": "976", "win": ["\u5357\u98ce", "\u5357\u98ce"], "win_speed": "<3\u7ea7", "win_meter": "\u5c0f\u4e8e12km/h", "sunrise": "07:38", "sunset": "17:34", "air": "82", "air_level": "\u826f", "air_tips": "\u7a7a\u6c14\u597d\uff0c\u53ef\u4ee5\u5916\u51fa\u6d3b\u52a8\uff0c\u9664\u6781\u5c11\u6570\u5bf9\u6c61\u67d3\u7269\u7279\u522b\u654f\u611f\u7684\u4eba\u7fa4\u4ee5\u5916\uff0c\u5bf9\u516c\u4f17\u6ca1\u6709\u5371\u5bb3\uff01", "alarm": {"alarm_type": "", "alarm_level": "", "alarm_content": ""}, "hours": [{"hours": "20\u65f6", "wea": "\u6674", "wea_img": "qing", "tem": "2", "win": "\u5357\u98ce", "win_speed": "<3\u7ea7"}, {"hours": "21\u65f6", "wea": "\u6674", "wea_img": "qing", "tem": "1", "win": "\u5357\u98ce", "win_speed": "<3\u7ea7"}, {"hours": "22\u65f6", "wea": "\u6674", "wea_img": "qing", "tem": "0", "win": "\u5357\u98ce", "win_speed": "3-4\u7ea7"}, {"hours": "23\u65f6", "wea": "\u6674", "wea_img": "qing", "tem": "0", "win": "\u5357\u98ce", "win_speed": "<3\u7ea7"}, {"hours": "00\u65f6", "wea": "\u6674", "wea_img": "qing", "tem": "0", "win": "\u4e1c\u5357\u98ce", "win_speed": "3-4\u7ea7"}, {"hours": "01\u65f6", "wea": "\u6674", "wea_img": "qing", "tem": "0", "win": "\u4e1c\u5357\u98ce", "win_speed": "<3\u7ea7"}, {"hours": "02\u65f6", "wea": "\u6674", "wea_img": "qing", "tem": "0", "win": "\u5357\u98ce", "win_speed": "<3\u7ea7"}, {"hours": "03\u65f6", "wea": "\u591a\u4e91", "wea_img": "yun", "tem": "0", "win": "\u5357\u98ce", "win_speed": "<3\u7ea7"}, {"hours": "04\u65f6", "wea": "\u591a\u4e91", "wea_img": "yun", "tem": "0", "win": "\u5357\u98ce", "win_speed": "<3\u7ea7"}, {"hours": "05\u65f6", "wea": "\u591a\u4e91", "wea_img": "yun", "tem": "0", "win": "\u5357\u98ce", "win_speed": "<3\u7ea7"}, {"hours": "06\u65f6", "wea": "\u591a\u4e91", "wea_img": "yun", "tem": "0", "win": "\u4e1c\u98ce", "win_speed": "<3\u7ea7"}, {"hours": "07\u65f6", "wea": "\u591a\u4e91", "wea_img": "yun", "tem": "-1", "win": "\u4e1c\u98ce", "win_speed": "<3\u7ea7"}], "index": [{"title": "\u7d2b\u5916\u7ebf\u6307\u6570", "level": "\u5f31", "desc": "\u8f90\u5c04\u8f83\u5f31\uff0c\u6d82\u64e6SPF12-15\u3001PA+\u62a4\u80a4\u54c1\u3002"}, {"title": "\u51cf\u80a5\u6307\u6570", "level": "\u4e00\u9897\u661f", "desc": "\u5929\u51c9\u5ba4\u5185\u53ef\u5065\u8eab\uff0c\u6237\u5916\u8fd0\u52a8\u9700\u4fdd\u6696\u3002"}, {"title": "\u8840\u7cd6\u6307\u6570", "level": "\u6613\u6ce2\u52a8", "desc": "\u8840\u7cd6\u6613\u6ce2\u52a8\uff0c\u6ce8\u610f\u76d1\u6d4b\u3002"}, {"title": "\u7a7f\u8863\u6307\u6570", "level": "\u51b7", "desc": "\u5efa\u8bae\u7740\u68c9\u8863\u52a0\u7f8a\u6bdb\u886b\u7b49\u51ac\u5b63\u670d\u88c5\u3002"}, {"title": "\u6d17\u8f66\u6307\u6570", "level": "\u9002\u5b9c", "desc": "\u5929\u6c14\u8f83\u597d\uff0c\u9002\u5408\u64e6\u6d17\u6c7d\u8f66\u3002"}, {"title": "\u7a7a\u6c14\u6c61\u67d3\u6269\u6563\u6307\u6570", "level": "\u4e2d", "desc": "\u6613\u611f\u4eba\u7fa4\u5e94\u9002\u5f53\u51cf\u5c11\u5ba4\u5916\u6d3b\u52a8\u3002"}]}, {"day": "11\u65e5\uff08\u661f\u671f\u4e94\uff09", "date": "2020-12-11", "week": "\u661f\u671f\u4e94", "wea": "\u591a\u4e91\u8f6c\u6674", "wea_img": "yun", "wea_day": "\u591a\u4e91", "wea_day_img": "yun", "wea_night": "\u6674", "wea_night_img": "qing", "tem": "7", "tem1": "7", "tem2": "-2", "humidity": "", "visibility": "", "pressure": "", "win": ["\u5357\u98ce", "\u5357\u98ce"], "win_speed": "<3\u7ea7", "win_meter": "", "sunrise": "07:39", "sunset": "17:34", "air": "91", "air_level": "\u826f", "air_tips": "", "alarm": {"alarm_type": "", "alarm_level": "", "alarm_content": ""}, "hours": [{"hours": "08\u65f6", "wea": "\u591a\u4e91", "wea_img": "yun", "tem": "-1", "win": "\u5357\u98ce", "win_speed": "<3\u7ea7"}, {"hours": "09\u65f6", "wea": "\u591a\u4e91", "wea_img": "yun", "tem": "1", "win": "\u4e1c\u5357\u98ce", "win_speed": "<3\u7ea7"}, {"hours": "10\u65f6", "wea": "\u591a\u4e91", "wea_img": "yun", "tem": "2", "win": "\u4e1c\u5357\u98ce", "win_speed": "<3\u7ea7"}, {"hours": "11\u65f6", "wea": "\u591a\u4e91", "wea_img": "yun", "tem": "4", "win": "\u5357\u98ce", "win_speed": "<3\u7ea7"}, {"hours": "12\u65f6", "wea": "\u591a\u4e91", "wea_img": "yun", "tem": "5", "win": "\u5357\u98ce", "win_speed": "<3\u7ea7"}, {"hours": "13\u65f6", "wea": "\u591a\u4e91", "wea_img": "yun", "tem": "6", "win": "\u5357\u98ce", "win_speed": "<3\u7ea7"}, {"hours": "14\u65f6", "wea": "\u591a\u4e91", "wea_img": "yun", "tem": "6", "win": "\u5357\u98ce", "win_speed": "<3\u7ea7"}, {"hours": "15\u65f6", "wea": "\u591a\u4e91", "wea_img": "yun", "tem": "6", "win": "\u897f\u5357\u98ce", "win_speed": "<3\u7ea7"}, {"hours": "16\u65f6", "wea": "\u591a\u4e91", "wea_img": "yun", "tem": "5", "win": "\u897f\u5357\u98ce", "win_speed": "<3\u7ea7"}, {"hours": "17\u65f6", "wea": "\u591a\u4e91", "wea_img": "yun", "tem": "5", "win": "\u5357\u98ce", "win_speed": "<3\u7ea7"}, {"hours": "18\u65f6", "wea": "\u591a\u4e91", "wea_img": "yun", "tem": "5", "win": "\u897f\u5357\u98ce", "win_speed": "<3\u7ea7"}, {"hours": "19\u65f6", "wea": "\u591a\u4e91", "wea_img": "yun", "tem": "3", "win": "\u5357\u98ce", "win_speed": "<3\u7ea7"}, {"hours": "20\u65f6", "wea": "\u6674", "wea_img": "qing", "tem": "3", "win": "\u5357\u98ce", "win_speed": "<3\u7ea7"}, {"hours": "21\u65f6", "wea": "\u6674", "wea_img": "qing", "tem": "2", "win": "\u5357\u98ce", "win_speed": "<3\u7ea7"}, {"hours": "22\u65f6", "wea": "\u6674", "wea_img": "qing", "tem": "0", "win": "\u5357\u98ce", "win_speed": "<3\u7ea7"}, {"hours": "23\u65f6", "wea": "\u6674", "wea_img": "qing", "tem": "0", "win": "\u5357\u98ce", "win_speed": "<3\u7ea7"}, {"hours": "00\u65f6", "wea": "\u6674", "wea_img": "qing", "tem": "-1", "win": "\u897f\u5357\u98ce", "win_speed": "<3\u7ea7"}, {"hours": "01\u65f6", "wea": "\u6674", "wea_img": "qing", "tem": "-2", "win": "\u897f\u5357\u98ce", "win_speed": "<3\u7ea7"}, {"hours": "02\u65f6", "wea": "\u6674", "wea_img": "qing", "tem": "-2", "win": "\u5357\u98ce", "win_speed": "<3\u7ea7"}, {"hours": "03\u65f6", "wea": "\u6674", "wea_img": "qing", "tem": "-1", "win": "\u897f\u5357\u98ce", "win_speed": "<3\u7ea7"}, {"hours": "04\u65f6", "wea": "\u6674", "wea_img": "qing", "tem": "-1", "win": "\u897f\u5357\u98ce", "win_speed": "<3\u7ea7"}, {"hours": "05\u65f6", "wea": "\u6674", "wea_img": "qing", "tem": "-1", "win": "\u5357\u98ce", "win_speed": "<3\u7ea7"}, {"hours": "06\u65f6", "wea": "\u6674", "wea_img": "qing", "tem": "0", "win": "\u5357\u98ce", "win_speed": "<3\u7ea7"}, {"hours": "07\u65f6", "wea": "\u6674", "wea_img": "qing", "tem": "0", "win": "\u897f\u5357\u98ce", "win_speed": "<3\u7ea7"}], "index": [{"title": "\u7d2b\u5916\u7ebf\u6307\u6570", "level": "\u5f31", "desc": "\u8f90\u5c04\u8f83\u5f31\uff0c\u6d82\u64e6SPF12-15\u3001PA+\u62a4\u80a4\u54c1\u3002"}, {"title": "\u51cf\u80a5\u6307\u6570", "level": "\u4e09\u9897\u661f", "desc": "\u5929\u6c14\u8f83\u8212\u9002\uff0c\u51cf\u80a5\u6b63\u5f53\u65f6\u3002"}, {"title": "\u8840\u7cd6\u6307\u6570", "level": "\u6613\u6ce2\u52a8", "desc": "\u8840\u7cd6\u6613\u6ce2\u52a8\uff0c\u6ce8\u610f\u76d1\u6d4b\u3002"}, {"title": "\u7a7f\u8863\u6307\u6570", "level": "\u51b7", "desc": "\u5efa\u8bae\u7740\u68c9\u8863\u52a0\u7f8a\u6bdb\u886b\u7b49\u51ac\u5b63\u670d\u88c5\u3002"}, {"title": "\u6d17\u8f66\u6307\u6570", "level": "\u9002\u5b9c", "desc": "\u5929\u6c14\u8f83\u597d\uff0c\u9002\u5408\u64e6\u6d17\u6c7d\u8f66\u3002"}, {"title": "\u7a7a\u6c14\u6c61\u67d3\u6269\u6563\u6307\u6570", "level": "\u4e2d", "desc": "\u6613\u611f\u4eba\u7fa4\u5e94\u9002\u5f53\u51cf\u5c11\u5ba4\u5916\u6d3b\u52a8\u3002"}]}, {"day": "12\u65e5\uff08\u661f\u671f\u516d\uff09", "date": "2020-12-12", "week": "\u661f\u671f\u516d", "wea": "\u591a\u4e91\u8f6c\u9634", "wea_img": "yun", "wea_day": "\u591a\u4e91", "wea_day_img": "yun", "wea_night": "\u9634", "wea_night_img": "yin", "tem": "7", "tem1": "7", "tem2": "-2", "humidity": "", "visibility": "", "pressure": "", "win": ["\u897f\u5357\u98ce", "\u4e1c\u5317\u98ce"], "win_speed": "<3\u7ea7", "win_meter": "", "sunrise": "07:40", "sunset": "17:34", "air": "96", "air_level": "\u826f", "air_tips": "", "alarm": {"alarm_type": "", "alarm_level": "", "alarm_content": ""}, "hours": [{"hours": "08\u65f6", "wea": "\u6674", "wea_img": "qing", "tem": "0", "win": "\u5357\u98ce", "win_speed": "<3\u7ea7"}, {"hours": "09\u65f6", "wea": "\u591a\u4e91", "wea_img": "yun", "tem": "3", "win": "\u897f\u5357\u98ce", "win_speed": "<3\u7ea7"}, {"hours": "10\u65f6", "wea": "\u591a\u4e91", "wea_img": "yun", "tem": "3", "win": "\u897f\u98ce", "win_speed": "<3\u7ea7"}, {"hours": "11\u65f6", "wea": "\u591a\u4e91", "wea_img": "yun", "tem": "4", "win": "\u897f\u5357\u98ce", "win_speed": "<3\u7ea7"}, {"hours": "12\u65f6", "wea": "\u591a\u4e91", "wea_img": "yun", "tem": "5", "win": "\u897f\u5357\u98ce", "win_speed": "<3\u7ea7"}, {"hours": "13\u65f6", "wea": "\u591a\u4e91", "wea_img": "yun", "tem": "6", "win": "\u897f\u98ce", "win_speed": "3-4\u7ea7"}, {"hours": "14\u65f6", "wea": "\u591a\u4e91", "wea_img": "yun", "tem": "6", "win": "\u897f\u5357\u98ce", "win_speed": "<3\u7ea7"}, {"hours": "15\u65f6", "wea": "\u591a\u4e91", "wea_img": "yun", "tem": "5", "win": "\u897f\u98ce", "win_speed": "<3\u7ea7"}, {"hours": "16\u65f6", "wea": "\u591a\u4e91", "wea_img": "yun", "tem": "4", "win": "\u897f\u5357\u98ce", "win_speed": "<3\u7ea7"}, {"hours": "17\u65f6", "wea": "\u6674", "wea_img": "qing", "tem": "3", "win": "\u897f\u5357\u98ce", "win_speed": "<3\u7ea7"}, {"hours": "18\u65f6", "wea": "\u591a\u4e91", "wea_img": "yun", "tem": "1", "win": "\u897f\u5357\u98ce", "win_speed": "<3\u7ea7"}, {"hours": "19\u65f6", "wea": "\u591a\u4e91", "wea_img": "yun", "tem": "1", "win": "\u897f\u5357\u98ce", "win_speed": "<3\u7ea7"}, {"hours": "20\u65f6", "wea": "\u591a\u4e91", "wea_img": "yun", "tem": "1", "win": "\u897f\u5357\u98ce", "win_speed": "<3\u7ea7"}, {"hours": "21\u65f6", "wea": "\u591a\u4e91", "wea_img": "yun", "tem": "1", "win": "\u897f\u5357\u98ce", "win_speed": "<3\u7ea7"}, {"hours": "22\u65f6", "wea": "\u591a\u4e91", "wea_img": "yun", "tem": "1", "win": "\u5357\u98ce", "win_speed": "<3\u7ea7"}, {"hours": "23\u65f6", "wea": "\u9634", "wea_img": "yin", "tem": "0", "win": "\u4e1c\u5317\u98ce", "win_speed": "<3\u7ea7"}, {"hours": "00\u65f6", "wea": "\u9634", "wea_img": "yin", "tem": "0", "win": "\u5357\u98ce", "win_speed": "<3\u7ea7"}, {"hours": "01\u65f6", "wea": "\u9634", "wea_img": "yin", "tem": "0", "win": "\u4e1c\u5357\u98ce", "win_speed": "<3\u7ea7"}, {"hours": "02\u65f6", "wea": "\u9634", "wea_img": "yin", "tem": "0", "win": "\u4e1c\u5317\u98ce", "win_speed": "<3\u7ea7"}, {"hours": "03\u65f6", "wea": "\u9634", "wea_img": "yin", "tem": "0", "win": "\u5357\u98ce", "win_speed": "<3\u7ea7"}, {"hours": "04\u65f6", "wea": "\u9634", "wea_img": "yin", "tem": "0", "win": "\u5357\u98ce", "win_speed": "<3\u7ea7"}, {"hours": "05\u65f6", "wea": "\u9634", "wea_img": "yin", "tem": "0", "win": "\u4e1c\u5317\u98ce", "win_speed": "<3\u7ea7"}, {"hours": "06\u65f6", "wea": "\u9634", "wea_img": "yin", "tem": "0", "win": "\u4e1c\u5317\u98ce", "win_speed": "<3\u7ea7"}, {"hours": "07\u65f6", "wea": "\u9634", "wea_img": "yin", "tem": "0", "win": "\u4e1c\u5317\u98ce", "win_speed": "<3\u7ea7"}], "index": [{"title": "\u7d2b\u5916\u7ebf\u6307\u6570", "level": "\u5f31", "desc": "\u8f90\u5c04\u8f83\u5f31\uff0c\u6d82\u64e6SPF12-15\u3001PA+\u62a4\u80a4\u54c1\u3002"}, {"title": "\u51cf\u80a5\u6307\u6570", "level": "\u4e09\u9897\u661f", "desc": "\u5929\u6c14\u8f83\u8212\u9002\uff0c\u51cf\u80a5\u6b63\u5f53\u65f6\u3002"}, {"title": "\u8840\u7cd6\u6307\u6570", "level": "\u6613\u6ce2\u52a8", "desc": "\u8840\u7cd6\u6613\u6ce2\u52a8\uff0c\u6ce8\u610f\u76d1\u6d4b\u3002"}, {"title": "\u7a7f\u8863\u6307\u6570", "level": "\u51b7", "desc": "\u5efa\u8bae\u7740\u68c9\u8863\u52a0\u7f8a\u6bdb\u886b\u7b49\u51ac\u5b63\u670d\u88c5\u3002"}, {"title": "\u6d17\u8f66\u6307\u6570", "level": "\u8f83\u9002\u5b9c", "desc": "\u65e0\u96e8\u4e14\u98ce\u529b\u8f83\u5c0f\uff0c\u6613\u4fdd\u6301\u6e05\u6d01\u5ea6\u3002"}, {"title": "\u7a7a\u6c14\u6c61\u67d3\u6269\u6563\u6307\u6570", "level": "\u4e2d", "desc": "\u6613\u611f\u4eba\u7fa4\u5e94\u9002\u5f53\u51cf\u5c11\u5ba4\u5916\u6d3b\u52a8\u3002"}]}, {"day": "13\u65e5\uff08\u661f\u671f\u65e5\uff09", "date": "2020-12-13", "week": "\u661f\u671f\u65e5", "wea": "\u96e8\u5939\u96ea\u8f6c\u591a\u4e91", "wea_img": "xue", "wea_day": "\u96e8\u5939\u96ea", "wea_day_img": "xue", "wea_night": "\u591a\u4e91", "wea_night_img": "yun", "tem": "0", "tem1": "0", "tem2": "-4", "humidity": "", "visibility": "", "pressure": "", "win": ["\u897f\u5357\u98ce", "\u4e1c\u5317\u98ce"], "win_speed": "<3\u7ea7", "win_meter": "", "sunrise": "07:41", "sunset": "17:34", "air": "94", "air_level": "\u826f", "air_tips": "", "alarm": {"alarm_type": "", "alarm_level": "", "alarm_content": ""}, "hours": [{"hours": "08\u65f6", "wea": "\u9634", "wea_img": "yin", "tem": "0", "win": "\u4e1c\u5317\u98ce", "win_speed": "<3\u7ea7"}, {"hours": "09\u65f6", "wea": "\u96e8\u5939\u96ea", "wea_img": "xue", "tem": "0", "win": "\u4e1c\u98ce", "win_speed": "<3\u7ea7"}, {"hours": "10\u65f6", "wea": "\u96e8\u5939\u96ea", "wea_img": "xue", "tem": "0", "win": "\u4e1c\u98ce", "win_speed": "<3\u7ea7"}, {"hours": "11\u65f6", "wea": "\u96e8\u5939\u96ea", "wea_img": "xue", "tem": "0", "win": "\u897f\u5357\u98ce", "win_speed": "<3\u7ea7"}, {"hours": "12\u65f6", "wea": "\u96e8\u5939\u96ea", "wea_img": "xue", "tem": "0", "win": "\u4e1c\u5357\u98ce", "win_speed": "<3\u7ea7"}, {"hours": "13\u65f6", "wea": "\u96e8\u5939\u96ea", "wea_img": "xue", "tem": "0", "win": "\u4e1c\u5357\u98ce", "win_speed": "<3\u7ea7"}, {"hours": "14\u65f6", "wea": "\u96e8\u5939\u96ea", "wea_img": "xue", "tem": "0", "win": "\u897f\u5357\u98ce", "win_speed": "<3\u7ea7"}, {"hours": "15\u65f6", "wea": "\u96e8\u5939\u96ea", "wea_img": "xue", "tem": "0", "win": "\u4e1c\u5357\u98ce", "win_speed": "<3\u7ea7"}, {"hours": "16\u65f6", "wea": "\u96e8\u5939\u96ea", "wea_img": "xue", "tem": "0", "win": "\u4e1c\u5357\u98ce", "win_speed": "<3\u7ea7"}, {"hours": "17\u65f6", "wea": "\u96e8\u5939\u96ea", "wea_img": "xue", "tem": "0", "win": "\u897f\u5357\u98ce", "win_speed": "<3\u7ea7"}, {"hours": "18\u65f6", "wea": "\u96e8\u5939\u96ea", "wea_img": "xue", "tem": "0", "win": "\u4e1c\u5357\u98ce", "win_speed": "3-4\u7ea7"}, {"hours": "19\u65f6", "wea": "\u96e8\u5939\u96ea", "wea_img": "xue", "tem": "0", "win": "\u4e1c\u5357\u98ce", "win_speed": "<3\u7ea7"}, {"hours": "20\u65f6", "wea": "\u96e8\u5939\u96ea", "wea_img": "xue", "tem": "0", "win": "\u897f\u5357\u98ce", "win_speed": "<3\u7ea7"}, {"hours": "23\u65f6", "wea": "\u591a\u4e91", "wea_img": "yun", "tem": "0", "win": "\u4e1c\u98ce", "win_speed": "<3\u7ea7"}, {"hours": "02\u65f6", "wea": "\u591a\u4e91", "wea_img": "yun", "tem": "0", "win": "\u4e1c\u5317\u98ce", "win_speed": "<3\u7ea7"}, {"hours": "05\u65f6", "wea": "\u591a\u4e91", "wea_img": "yun", "tem": "-4", "win": "\u4e1c\u5317\u98ce", "win_speed": "<3\u7ea7"}], "index": [{"title": "\u7d2b\u5916\u7ebf\u6307\u6570", "level": "\u6700\u5f31", "desc": "\u8f90\u5c04\u5f31\uff0c\u6d82\u64e6SPF8-12\u9632\u6652\u62a4\u80a4\u54c1\u3002"}, {"title": "\u51cf\u80a5\u6307\u6570", "level": "\u4e00\u9897\u661f", "desc": "\u96e8\u96ea\u76f8\u4f34\u6e7f\u51b7\u5929\uff0c\u575a\u6301\u5ba4\u5185\u4f4e\u5f3a\u5ea6\u8fd0\u52a8\u3002"}, {"title": "\u8840\u7cd6\u6307\u6570", "level": "\u6613\u6ce2\u52a8", "desc": "\u6c14\u6e29\u591a\u53d8\uff0c\u8840\u7cd6\u6613\u6ce2\u52a8\uff0c\u8bf7\u6ce8\u610f\u76d1\u6d4b\u3002"}, {"title": "\u7a7f\u8863\u6307\u6570", "level": "\u5bd2\u51b7", "desc": "\u5efa\u8bae\u7740\u539a\u7fbd\u7ed2\u670d\u7b49\u9686\u51ac\u670d\u88c5\u3002"}, {"title": "\u6d17\u8f66\u6307\u6570", "level": "\u4e0d\u5b9c", "desc": "\u6709\u96ea\uff0c\u96ea\u6c34\u548c\u6ce5\u6c34\u4f1a\u5f04\u810f\u7231\u8f66\u3002"}, {"title": "\u7a7a\u6c14\u6c61\u67d3\u6269\u6563\u6307\u6570", "level": "\u826f", "desc": "\u6c14\u8c61\u6761\u4ef6\u6709\u5229\u4e8e\u7a7a\u6c14\u6c61\u67d3\u7269\u6269\u6563\u3002"}]}, {"day": "14\u65e5\uff08\u661f\u671f\u4e00\uff09", "date": "2020-12-14", "week": "\u661f\u671f\u4e00", "wea": "\u9634\u8f6c\u591a\u4e91", "wea_img": "yun", "wea_day": "\u9634", "wea_day_img": "yin", "wea_night": "\u591a\u4e91", "wea_night_img": "yun", "tem": "3", "tem1": "3", "tem2": "-4", "humidity": "", "visibility": "", "pressure": "", "win": ["\u4e1c\u5317\u98ce", "\u5357\u98ce"], "win_speed": "<3\u7ea7", "win_meter": "", "sunrise": "07:41", "sunset": "17:35", "air": "90", "air_level": "\u826f", "air_tips": "", "alarm": {"alarm_type": "", "alarm_level": "", "alarm_content": ""}, "hours": [{"hours": "08\u65f6", "wea": "\u591a\u4e91", "wea_img": "yun", "tem": "-4", "win": "\u4e1c\u5317\u98ce", "win_speed": "<3\u7ea7"}, {"hours": "11\u65f6", "wea": "\u591a\u4e91", "wea_img": "yun", "tem": "0", "win": "\u4e1c\u5317\u98ce", "win_speed": "<3\u7ea7"}, {"hours": "14\u65f6", "wea": "\u9634", "wea_img": "yin", "tem": "3", "win": "\u4e1c\u5317\u98ce", "win_speed": "<3\u7ea7"}, {"hours": "17\u65f6", "wea": "\u9634", "wea_img": "yin", "tem": "0", "win": "\u4e1c\u5317\u98ce", "win_speed": "<3\u7ea7"}, {"hours": "20\u65f6", "wea": "\u9634", "wea_img": "yin", "tem": "-2", "win": "\u4e1c\u5317\u98ce", "win_speed": "<3\u7ea7"}, {"hours": "23\u65f6", "wea": "\u591a\u4e91", "wea_img": "yun", "tem": "-3", "win": "\u5357\u98ce", "win_speed": "<3\u7ea7"}, {"hours": "02\u65f6", "wea": "\u591a\u4e91", "wea_img": "yun", "tem": "-3", "win": "\u5357\u98ce", "win_speed": "<3\u7ea7"}, {"hours": "05\u65f6", "wea": "\u591a\u4e91", "wea_img": "yun", "tem": "-2", "win": "\u897f\u5357\u98ce", "win_speed": "<3\u7ea7"}], "index": [{"title": "\u7d2b\u5916\u7ebf\u6307\u6570", "level": "\u6700\u5f31", "desc": "\u8f90\u5c04\u5f31\uff0c\u6d82\u64e6SPF8-12\u9632\u6652\u62a4\u80a4\u54c1\u3002"}, {"title": "\u51cf\u80a5\u6307\u6570", "level": "\u4e00\u9897\u661f", "desc": "\u5929\u51c9\u5ba4\u5185\u53ef\u5065\u8eab\uff0c\u6237\u5916\u8fd0\u52a8\u9700\u4fdd\u6696\u3002"}, {"title": "\u8840\u7cd6\u6307\u6570", "level": "\u6613\u6ce2\u52a8", "desc": "\u8840\u7cd6\u6613\u6ce2\u52a8\uff0c\u6ce8\u610f\u76d1\u6d4b\u3002"}, {"title": "\u7a7f\u8863\u6307\u6570", "level": "\u5bd2\u51b7", "desc": "\u5efa\u8bae\u7740\u539a\u7fbd\u7ed2\u670d\u7b49\u9686\u51ac\u670d\u88c5\u3002"}, {"title": "\u6d17\u8f66\u6307\u6570", "level": "\u9002\u5b9c", "desc": "\u5929\u6c14\u8f83\u597d\uff0c\u9002\u5408\u64e6\u6d17\u6c7d\u8f66\u3002"}, {"title": "\u7a7a\u6c14\u6c61\u67d3\u6269\u6563\u6307\u6570", "level": "\u8f83\u5dee", "desc": "\u6c14\u8c61\u6761\u4ef6\u8f83\u4e0d\u5229\u4e8e\u7a7a\u6c14\u6c61\u67d3\u7269\u6269\u6563\u3002\u3002"}]}, {"day": "15\u65e5\uff08\u661f\u671f\u4e8c\uff09", "date": "2020-12-15", "week": "\u661f\u671f\u4e8c", "wea": "\u6674\u8f6c\u591a\u4e91", "wea_img": "yun", "wea_day": "\u6674", "wea_day_img": "qing", "wea_night": "\u591a\u4e91", "wea_night_img": "yun", "tem": "5", "tem1": "5", "tem2": "-3", "humidity": "", "visibility": "", "pressure": "", "win": ["\u4e1c\u5317\u98ce", "\u4e1c\u5357\u98ce"], "win_speed": "<3\u7ea7", "win_meter": "", "sunrise": "07:42", "sunset": "17:35", "air": "98", "air_level": "\u826f", "air_tips": "", "alarm": {"alarm_type": "", "alarm_level": "", "alarm_content": ""}, "hours": [{"hours": "08\u65f6", "wea": "\u591a\u4e91", "wea_img": "yun", "tem": "-2", "win": "\u5357\u98ce", "win_speed": "<3\u7ea7"}, {"hours": "11\u65f6", "wea": "\u591a\u4e91", "wea_img": "yun", "tem": "2", "win": "\u897f\u5357\u98ce", "win_speed": "<3\u7ea7"}, {"hours": "14\u65f6", "wea": "\u6674", "wea_img": "qing", "tem": "5", "win": "\u4e1c\u5317\u98ce", "win_speed": "<3\u7ea7"}, {"hours": "17\u65f6", "wea": "\u6674", "wea_img": "qing", "tem": "2", "win": "\u5357\u98ce", "win_speed": "<3\u7ea7"}, {"hours": "20\u65f6", "wea": "\u6674", "wea_img": "qing", "tem": "-1", "win": "\u4e1c\u5317\u98ce", "win_speed": "<3\u7ea7"}, {"hours": "23\u65f6", "wea": "\u591a\u4e91", "wea_img": "yun", "tem": "-1", "win": "\u5357\u98ce", "win_speed": "<3\u7ea7"}, {"hours": "02\u65f6", "wea": "\u591a\u4e91", "wea_img": "yun", "tem": "-1", "win": "\u4e1c\u5357\u98ce", "win_speed": "<3\u7ea7"}, {"hours": "05\u65f6", "wea": "\u591a\u4e91", "wea_img": "yun", "tem": "0", "win": "\u4e1c\u5357\u98ce", "win_speed": "<3\u7ea7"}], "index": [{"title": "\u7d2b\u5916\u7ebf\u6307\u6570", "level": "\u4e2d\u7b49", "desc": "\u6d82\u64e6SPF\u5927\u4e8e15\u3001PA+\u9632\u6652\u62a4\u80a4\u54c1\u3002"}, {"title": "\u51cf\u80a5\u6307\u6570", "level": "\u4e00\u9897\u661f", "desc": "\u5929\u51c9\u5ba4\u5185\u53ef\u5065\u8eab\uff0c\u6237\u5916\u8fd0\u52a8\u9700\u4fdd\u6696\u3002"}, {"title": "\u8840\u7cd6\u6307\u6570", "level": "\u6613\u6ce2\u52a8", "desc": "\u8840\u7cd6\u6613\u6ce2\u52a8\uff0c\u6ce8\u610f\u76d1\u6d4b\u3002"}, {"title": "\u7a7f\u8863\u6307\u6570", "level": "\u51b7", "desc": "\u5efa\u8bae\u7740\u68c9\u8863\u52a0\u7f8a\u6bdb\u886b\u7b49\u51ac\u5b63\u670d\u88c5\u3002"}, {"title": "\u6d17\u8f66\u6307\u6570", "level": "\u9002\u5b9c", "desc": "\u5929\u6c14\u8f83\u597d\uff0c\u9002\u5408\u64e6\u6d17\u6c7d\u8f66\u3002"}, {"title": "\u7a7a\u6c14\u6c61\u67d3\u6269\u6563\u6307\u6570", "level": "\u4e2d", "desc": "\u6613\u611f\u4eba\u7fa4\u5e94\u9002\u5f53\u51cf\u5c11\u5ba4\u5916\u6d3b\u52a8\u3002"}]}, {"day": "16\u65e5\uff08\u661f\u671f\u4e09\uff09", "date": "2020-12-16", "week": "\u661f\u671f\u4e09", "wea": "\u9634", "wea_img": "yin", "wea_day": "\u9634", "wea_day_img": "yin", "wea_night": "\u9634", "wea_night_img": "yin", "tem": "4", "tem1": "4", "tem2": "-1", "humidity": "", "visibility": "", "pressure": "", "win": ["\u5357\u98ce", "\u5357\u98ce"], "win_speed": "<3\u7ea7", "win_meter": "", "sunrise": "07:43", "sunset": "17:35", "air": "99", "air_level": "\u826f", "air_tips": "", "alarm": {"alarm_type": "", "alarm_level": "", "alarm_content": ""}, "hours": [{"hours": "08\u65f6", "wea": "\u591a\u4e91", "wea_img": "yun", "tem": "0", "win": "\u4e1c\u5357\u98ce", "win_speed": "<3\u7ea7"}, {"hours": "11\u65f6", "wea": "\u591a\u4e91", "wea_img": "yun", "tem": "2", "win": "\u4e1c\u98ce", "win_speed": "<3\u7ea7"}, {"hours": "14\u65f6", "wea": "\u9634", "wea_img": "yin", "tem": "3", "win": "\u5357\u98ce", "win_speed": "<3\u7ea7"}, {"hours": "17\u65f6", "wea": "\u9634", "wea_img": "yin", "tem": "2", "win": "\u4e1c\u98ce", "win_speed": "<3\u7ea7"}, {"hours": "20\u65f6", "wea": "\u9634", "wea_img": "yin", "tem": "1", "win": "\u5357\u98ce", "win_speed": "<3\u7ea7"}, {"hours": "23\u65f6", "wea": "\u9634", "wea_img": "yin", "tem": "0", "win": "\u897f\u98ce", "win_speed": "3-4\u7ea7"}, {"hours": "02\u65f6", "wea": "\u9634", "wea_img": "yin", "tem": "0", "win": "\u5357\u98ce", "win_speed": "<3\u7ea7"}, {"hours": "05\u65f6", "wea": "\u9634", "wea_img": "yin", "tem": "0", "win": "\u897f\u5357\u98ce", "win_speed": "<3\u7ea7"}], "index": [{"title": "\u7d2b\u5916\u7ebf\u6307\u6570", "level": "\u6700\u5f31", "desc": "\u8f90\u5c04\u5f31\uff0c\u6d82\u64e6SPF8-12\u9632\u6652\u62a4\u80a4\u54c1\u3002"}, {"title": "\u51cf\u80a5\u6307\u6570", "level": "\u4e00\u9897\u661f", "desc": "\u5929\u51c9\u5ba4\u5185\u53ef\u5065\u8eab\uff0c\u6237\u5916\u8fd0\u52a8\u9700\u4fdd\u6696\u3002"}, {"title": "\u8840\u7cd6\u6307\u6570", "level": "\u6613\u6ce2\u52a8", "desc": "\u8840\u7cd6\u6613\u6ce2\u52a8\uff0c\u6ce8\u610f\u76d1\u6d4b\u3002"}, {"title": "\u7a7f\u8863\u6307\u6570", "level": "\u5bd2\u51b7", "desc": "\u5efa\u8bae\u7740\u539a\u7fbd\u7ed2\u670d\u7b49\u9686\u51ac\u670d\u88c5\u3002"}, {"title": "\u6d17\u8f66\u6307\u6570", "level": "\u9002\u5b9c", "desc": "\u5929\u6c14\u8f83\u597d\uff0c\u9002\u5408\u64e6\u6d17\u6c7d\u8f66\u3002"}, {"title": "\u7a7a\u6c14\u6c61\u67d3\u6269\u6563\u6307\u6570", "level": "\u8f83\u5dee", "desc": "\u6c14\u8c61\u6761\u4ef6\u8f83\u4e0d\u5229\u4e8e\u7a7a\u6c14\u6c61\u67d3\u7269\u6269\u6563\u3002\u3002"}]}], "aqi": {"update_time": "19:45", "cityid": "101110101", "city": "\u897f\u5b89", "cityEn": "xian", "country": "\u4e2d\u56fd", "countryEn": "China", "air": "82", "air_level": "\u826f", "air_tips": "\u7a7a\u6c14\u597d\uff0c\u53ef\u4ee5\u5916\u51fa\u6d3b\u52a8\uff0c\u9664\u6781\u5c11\u6570\u5bf9\u6c61\u67d3\u7269\u7279\u522b\u654f\u611f\u7684\u4eba\u7fa4\u4ee5\u5916\uff0c\u5bf9\u516c\u4f17\u6ca1\u6709\u5371\u5bb3\uff01", "pm25": "61", "pm25_desc": "\u826f", "pm10": "95", "pm10_desc": "\u826f", "o3": "30", "o3_desc": "\u4f18", "no2": "65", "no2_desc": "\u4f18", "so2": "7", "so2_desc": "\u4f18", "co": "1", "co_desc": "\u4f18", "kouzhao": "\u4e0d\u7528\u4f69\u6234\u53e3\u7f69", "yundong": "\u9002\u5b9c\u8fd0\u52a8", "waichu": "\u9002\u5b9c\u5916\u51fa", "kaichuang": "\u9002\u5b9c\u5f00\u7a97", "jinghuaqi": "\u5173\u95ed\u51c0\u5316\u5668"}},
